{"type":"FeatureCollection","features":[{"type":"Feature","properties":{"id":"TLE-1","query":"Allen, TX","name":"Allen, Collin County, Texas, United States"},"geometry":{"type":"Point","coordinates":[-96.6705503,33.1031744]}},{"type":"Feature","properties":{"id":"TLE-2","query":"205 Stella St, Argyle, TX","name":"Stella Street, Argyle Crossing, Denton County, Texas, United States"},"geometry":{"type":"Point","coordinates":[-97.1919499,33.0893392]}},{"type":"Feature","properties":{"id":"TLE-3","query":"Aubrey, TX","name":"Aubrey, Denton County, Texas, United States"},"geometry":{"type":"Point","coordinates":[-96.9756323,33.3142085]}},{"type":"Feature","properties":{"id":"TLE-4","query":"Brushy Creek, Austin, TX","name":"South Brushy Creek, Cedar Park, Williamson County, Texas, United States"},"geometry":{"type":"Point","coordinates":[-97.7958498,30.5028031]}},{"type":"Feature","properties":{"id":"TLE-5","query":"Southwest Austin, Austin, TX","name":"Bell Austin Southwest, 3621, Austin, Travis County, Texas, 78749, United States"},"geometry":{"type":"Point","coordinates":[-97.8534264,30.1835817]}},{"type":"Feature","properties":{"id":"TLE-6","query":"Austin-Anderson Mill, Austin, TX","name":"Austin Emergency Center - Anderson Mill, 13435, US 183, Pond Springs, Austin, Williamson County, Texas, 78750, United States"},"geometry":{"type":"Point","coordinates":[-97.7878735,30.4491686]}},{"type":"Feature","properties":{"id":"TLE-7","query":"Dripping Springs, Austin, TX","name":"The PREP School of Dripping Springs, 12610, Nutty Brown Road, Belterra, Austin, Hays County, Texas, 78737, United States"},"geometry":{"type":"Point","coordinates":[-97.973074,30.2027519]}},{"type":"Feature","properties":{"id":"TLE-8","query":"Mueller, Austin, TX","name":"Mueller, Austin, Travis County, Texas, 78723, United States"},"geometry":{"type":"Point","coordinates":[-97.7002032,30.2965242]}},{"type":"Feature","properties":{"id":"TLE-9","query":"Bastrop, TX","name":"Bastrop County, Texas, United States"},"geometry":{"type":"Point","coordinates":[-97.3887764,30.0541116]}},{"type":"Feature","properties":{"id":"TLE-10","query":"Bee Cave, TX","name":"Bee Cave, Travis County, Texas, United States"},"geometry":{"type":"Point","coordinates":[-97.94501,30.3085373]}},{"type":"Feature","properties":{"id":"TLE-11","query":"Buda, TX","name":"Buda, Hays County, Texas, United States"},"geometry":{"type":"Point","coordinates":[-97.8417144,30.082475]}},{"type":"Feature","properties":{"id":"TLE-12","query":"Burleson - Crowley, Burleson, TX","name":"AMC Burleson 14, 301, West Rendon Crowley Road, Burleson, Tarrant County, Texas, 76028, United States"},"geometry":{"type":"Point","coordinates":[-97.3243794,32.5762745]}},{"type":"Feature","properties":{"id":"TLE-14","query":"Cedar Park, TX","name":"Cedar Park, Williamson County, Texas, United States"},"geometry":{"type":"Point","coordinates":[-97.827833,30.5217116]}},{"type":"Feature","properties":{"id":"TLE-15","query":"Conroe, TX","name":"Conroe, Montgomery County, Texas, United States"},"geometry":{"type":"Point","coordinates":[-95.4560512,30.3118769]}},{"type":"Feature","properties":{"id":"TLE-16","query":"Coppell, TX","name":"Coppell, Dallas County, Texas, 75019, United States"},"geometry":{"type":"Point","coordinates":[-97.0155703,32.9552598]}},{"type":"Feature","properties":{"id":"TLE-17","query":"Cypress, TX","name":"Cypress, Harris County, Texas, 77429, United States"},"geometry":{"type":"Point","coordinates":[-95.6971686,29.9691116]}},{"type":"Feature","properties":{"id":"TLE-18","query":"Northpointe, Cypress, TX","name":"The Learning Experience - Cypress Northpointe, 17997, Shaw Road, Cypress, Harris County, Texas, 77429, United States"},"geometry":{"type":"Point","coordinates":[-95.6415357,30.0315149]}},{"type":"Feature","properties":{"id":"TLE-19","query":"Frankford, Dallas, TX","name":"Frankford, Frankford Cemetery, Dallas, Collin County, Texas, 75282, United States"},"geometry":{"type":"Point","coordinates":[-96.82387,32.9887]}},{"type":"Feature","properties":{"id":"TLE-20","query":"Denton, TX","name":"Denton County, Texas, United States"},"geometry":{"type":"Point","coordinates":[-97.1413417,33.1838787]}},{"type":"Feature","properties":{"id":"TLE-21","query":"Dickinson, TX","name":"Dickinson, Galveston County, Texas, 77539, United States"},"geometry":{"type":"Point","coordinates":[-95.0513173,29.4607876]}},{"type":"Feature","properties":{"id":"TLE-22","query":"Farmers Branch, TX","name":"Farmers Branch, Dallas County, Texas, 75234, United States"},"geometry":{"type":"Point","coordinates":[-96.8960916,32.9265668]}},{"type":"Feature","properties":{"id":"TLE-23","query":"Forney, TX","name":"Forney, Kaufman County, Texas, 75126, United States"},"geometry":{"type":"Point","coordinates":[-96.4719289,32.747893]}},{"type":"Feature","properties":{"id":"TLE-24","query":"Fort Worth Heritage, Fort Worth, TX","name":"Mercedes-Benz Fin Svcs USA LLC, 13650, Heritage Parkway, Fort Worth, Tarrant County, Texas, 76177, United States"},"geometry":{"type":"Point","coordinates":[-97.3091928,32.979843]}},{"type":"Feature","properties":{"id":"TLE-26","query":"Frisco, TX","name":"Frisco, Collin County, Texas, United States"},"geometry":{"type":"Point","coordinates":[-96.8238183,33.1505998]}},{"type":"Feature","properties":{"id":"TLE-27","query":"Hillcrest, Frisco, TX","name":"Hillcrest Neighborhood Park, Panther Creek Estates, Frisco, Collin County, Texas, United States"},"geometry":{"type":"Point","coordinates":[-96.7821384,33.1822231]}},{"type":"Feature","properties":{"id":"TLE-28","query":"Lake Georgetown, Georgetown, TX","name":"Lake Georgetown, Georgetown, Williamson County, Texas, United States"},"geometry":{"type":"Point","coordinates":[-97.7415861,30.6768457]}},{"type":"Feature","properties":{"id":"TLE-29","query":"Georgetown, TX","name":"Georgetown, Williamson County, Texas, 78626, United States"},"geometry":{"type":"Point","coordinates":[-97.6775634,30.6370152]}},{"type":"Feature","properties":{"id":"TLE-30","query":"Camp Wisdom, Grand Prairie, TX","name":"West Camp Wisdom Road, Lake Parks West, Grand Prairie, Tarrant County, Texas, 75053, United States"},"geometry":{"type":"Point","coordinates":[-97.0571943,32.6477655]}},{"type":"Feature","properties":{"id":"TLE-31","query":"Forum Dr, Grand Prairie, TX","name":"Forum Drive, Grand Prairie, Tarrant County, Texas, 75052, United States"},"geometry":{"type":"Point","coordinates":[-97.0552236,32.6892502]}},{"type":"Feature","properties":{"id":"TLE-32","query":"Hickory Creek, TX","name":"Hickory Creek, Denton County, Texas, United States"},"geometry":{"type":"Point","coordinates":[-97.0430647,33.1223429]}},{"type":"Feature","properties":{"id":"TLE-33","query":"Kingwood, Houston, TX","name":"Kingwood, Houston, Harris County, Texas, 77345, United States"},"geometry":{"type":"Point","coordinates":[-95.1846301,30.0497077]}},{"type":"Feature","properties":{"id":"TLE-34","query":"Eldridge, Houston, TX","name":"The Bridges on Eldridge, Houston, Harris County, Texas, United States"},"geometry":{"type":"Point","coordinates":[-95.6254057,29.7420485]}},{"type":"Feature","properties":{"id":"TLE-35","query":"West University, Houston, TX","name":"Village at West University, 5151, Greenway, Houston, Harris County, Texas, 77005, United States"},"geometry":{"type":"Point","coordinates":[-95.4321293,29.7269386]}},{"type":"Feature","properties":{"id":"TLE-36","query":"Spring Branch, Houston, TX","name":"Spring Branch, Houston, Harris County, Texas, United States"},"geometry":{"type":"Point","coordinates":[-95.5293104,29.8265607]}},{"type":"Feature","properties":{"id":"TLE-37","query":"Oak Forest, Houston, TX","name":"Oak Forest, Houston, Harris County, Texas, 77092, United States"},"geometry":{"type":"Point","coordinates":[-95.4712717,29.8306833]}},{"type":"Feature","properties":{"id":"TLE-38","query":"Heights, Houston, TX","name":"Houston Heights, Houston, Harris County, Texas, United States"},"geometry":{"type":"Point","coordinates":[-95.3984463,29.797687]}},{"type":"Feature","properties":{"id":"TLE-39","query":"Clear Lake, Houston, TX","name":"Clear Lake, Houston, Harris County, Texas, 77062, United States"},"geometry":{"type":"Point","coordinates":[-95.1307011,29.5776747]}},{"type":"Feature","properties":{"id":"TLE-40","query":"Museum District, Houston, TX","name":"Museum District, Houston, Harris County, Texas, United States"},"geometry":{"type":"Point","coordinates":[-95.3878388,29.7247007]}},{"type":"Feature","properties":{"id":"TLE-41","query":"Humble, TX","name":"Humble, Harris County, Texas, United States"},"geometry":{"type":"Point","coordinates":[-95.2621553,29.9988312]}},{"type":"Feature","properties":{"id":"TLE-42","query":"Lake Houston, Humble, TX","name":"Lake Houston, Houston, Harris County, Texas, United States"},"geometry":{"type":"Point","coordinates":[-95.1269873,30.0001057]}},{"type":"Feature","properties":{"id":"TLE-43","query":"Mid Cities, Hurst, TX","name":"Mid Cities Boulevard, Hurst, Tarrant County, Texas, 76054, United States"},"geometry":{"type":"Point","coordinates":[-97.1852301,32.8618971]}},{"type":"Feature","properties":{"id":"TLE-44","query":"Hutto, TX","name":"Hutto, Williamson County, Texas, 78634, United States"},"geometry":{"type":"Point","coordinates":[-97.5468898,30.5427638]}},{"type":"Feature","properties":{"id":"TLE-46","query":"Jersey Village, TX","name":"Jersey Village, Harris County, Texas, United States"},"geometry":{"type":"Point","coordinates":[-95.5699185,29.888578]}},{"type":"Feature","properties":{"id":"TLE-47","query":"Katy Mills, Katy, TX","name":"Katy Mills, Katy Mills Circle, Katy, Fort Bend County, Texas, 77494, United States"},"geometry":{"type":"Point","coordinates":[-95.809401,29.7755523]}},{"type":"Feature","properties":{"id":"TLE-49","query":"Keller, TX","name":"Keller, Tarrant County, Texas, 76248, United States"},"geometry":{"type":"Point","coordinates":[-97.2271249,32.9299655]}},{"type":"Feature","properties":{"id":"TLE-51","query":"Kyle, TX","name":"Kyle, Hays County, Texas, 78640, United States"},"geometry":{"type":"Point","coordinates":[-97.8772103,29.9892928]}},{"type":"Feature","properties":{"id":"TLE-52","query":"Lakeway, TX","name":"Lakeway, Travis County, Texas, United States"},"geometry":{"type":"Point","coordinates":[-97.9875325,30.3644888]}},{"type":"Feature","properties":{"id":"TLE-53","query":"League City, TX","name":"League City, Galveston County, Texas, 77573, United States"},"geometry":{"type":"Point","coordinates":[-95.0949303,29.5074538]}},{"type":"Feature","properties":{"id":"TLE-54","query":"Leander, TX","name":"Leander, Williamson County, Texas, 78646, United States"},"geometry":{"type":"Point","coordinates":[-97.8567339,30.5736134]}},{"type":"Feature","properties":{"id":"TLE-55","query":"Ronald Reagan Blvd, Leander, TX","name":"Ronald W Reagan Boulevard, Leander, Williamson County, Texas, United States"},"geometry":{"type":"Point","coordinates":[-97.8275735,30.6321074]}},{"type":"Feature","properties":{"id":"TLE-56","query":"Castle Hills, Lewisville, TX","name":"Castle Hills, Lewisville, Denton County, Texas, United States"},"geometry":{"type":"Point","coordinates":[-96.9143933,33.0408672]}},{"type":"Feature","properties":{"id":"TLE-57","query":"Lewisville, TX","name":"Lewisville, Denton County, Texas, United States"},"geometry":{"type":"Point","coordinates":[-96.994174,33.046233]}},{"type":"Feature","properties":{"id":"TLE-58","query":"Magnolia, TX","name":"Magnolia, Montgomery County, Texas, 77353, United States"},"geometry":{"type":"Point","coordinates":[-95.7507897,30.2095594]}},{"type":"Feature","properties":{"id":"TLE-59","query":"Manor, TX","name":"Manor, Travis County, Texas, 78653, United States"},"geometry":{"type":"Point","coordinates":[-97.555905,30.3420882]}},{"type":"Feature","properties":{"id":"TLE-60","query":"Mansfield, TX","name":"Mansfield, Tarrant County, Texas, 76063, United States"},"geometry":{"type":"Point","coordinates":[-97.1420308,32.563487]}},{"type":"Feature","properties":{"id":"TLE-61","query":"Manvel, TX","name":"Manvel, Brazoria County, Texas, 77578, United States"},"geometry":{"type":"Point","coordinates":[-95.355714,29.4664706]}},{"type":"Feature","properties":{"id":"TLE-62","query":"McKinney, TX","name":"McKinney, Collin County, Texas, United States"},"geometry":{"type":"Point","coordinates":[-96.6154471,33.1976496]}},{"type":"Feature","properties":{"id":"TLE-64","query":"Sienna Plantation, Missouri City, TX","name":"The Church of Jesus Christ of Latter-Day Saints, Sienna Plantation Ward, 8333, Scanlan Trace, Missouri City, Fort Bend County, Texas, 77459, United States"},"geometry":{"type":"Point","coordinates":[-95.5246906,29.4859772]}},{"type":"Feature","properties":{"id":"TLE-65","query":"Quail Valley, Missouri City, TX","name":"Quail Valley Golf Course, La Quinta Drive, Missouri City, Fort Bend County, Texas, 77561, United States"},"geometry":{"type":"Point","coordinates":[-95.5476716,29.5775393]}},{"type":"Feature","properties":{"id":"TLE-66","query":"Pearland, TX","name":"Pearland, Brazoria County, Texas, 77581, United States"},"geometry":{"type":"Point","coordinates":[-95.2864299,29.5639758]}},{"type":"Feature","properties":{"id":"TLE-67","query":"Pflugerville, TX","name":"Pflugerville, Travis County, Texas, United States"},"geometry":{"type":"Point","coordinates":[-97.6200043,30.4393696]}},{"type":"Feature","properties":{"id":"TLE-68","query":"Plano, TX","name":"Plano, Collin County, Texas, United States"},"geometry":{"type":"Point","coordinates":[-96.6925096,33.0136764]}},{"type":"Feature","properties":{"id":"TLE-69","query":"Richardson, TX","name":"Richardson, Dallas County, Texas, United States"},"geometry":{"type":"Point","coordinates":[-96.7297206,32.9481789]}},{"type":"Feature","properties":{"id":"TLE-71","query":"Pecan Grove, Richmond, TX","name":"Pecan Grove Park, 684, Richmond, Fort Bend County, Texas, 77406, United States"},"geometry":{"type":"Point","coordinates":[-95.7360236,29.6072798]}},{"type":"Feature","properties":{"id":"TLE-72","query":"102 Benton Rd, Rosenberg, TX","name":"Summer Lakes Self Storage, 102, Benton Road, Rosenberg, Fort Bend County, Texas, 77469, United States"},"geometry":{"type":"Point","coordinates":[-95.7259779,29.5397732]}},{"type":"Feature","properties":{"id":"TLE-73","query":"Round Rock, TX","name":"Round Rock, Williamson County, Texas, United States"},"geometry":{"type":"Point","coordinates":[-97.6788056,30.5085915]}},{"type":"Feature","properties":{"id":"TLE-74","query":"Sachse, TX","name":"Sachse, Dallas County, Texas, 75048, United States"},"geometry":{"type":"Point","coordinates":[-96.5952703,32.9762327]}},{"type":"Feature","properties":{"id":"TLE-75","query":"Bulverde, San Antonio, TX","name":"Bulverde Gardens, San Antonio, Bexar County, Texas, United States"},"geometry":{"type":"Point","coordinates":[-98.4226698,29.6090364]}},{"type":"Feature","properties":{"id":"TLE-76","query":"Alamo Ranch, San Antonio, TX","name":"Alamo Ranch, San Antonio, Bexar County, Texas, United States"},"geometry":{"type":"Point","coordinates":[-98.7102256,29.489698]}},{"type":"Feature","properties":{"id":"TLE-77","query":"North Schertz, Schertz, TX","name":"Schertz North Community Center, 3501, Morning Drive, Northcliffe, Schertz, Guadalupe County, Texas, 78108, United States"},"geometry":{"type":"Point","coordinates":[-98.2244908,29.619646]}},{"type":"Feature","properties":{"id":"TLE-78","query":"Southlake, TX","name":"Southlake, Tarrant County, Texas, 76092, United States"},"geometry":{"type":"Point","coordinates":[-97.1341783,32.9412363]}},{"type":"Feature","properties":{"id":"TLE-79","query":"Spring, TX","name":"Spring, Harris County, Texas, 77373, United States"},"geometry":{"type":"Point","coordinates":[-95.4187924,30.0795707]}},{"type":"Feature","properties":{"id":"TLE-80","query":"North Spring, Spring, TX","name":"North Spring Drive, Spring, Harris County, Texas, 77373, United States"},"geometry":{"type":"Point","coordinates":[-95.3859023,30.0613154]}},{"type":"Feature","properties":{"id":"TLE-81","query":"Tomball, TX","name":"Tomball, Harris County, Texas, United States"},"geometry":{"type":"Point","coordinates":[-95.6160549,30.0971621]}}]}